{
  "exam_sessions": [
    {
      "level_code": "PERUS",
      "max_participants": 50,
      "language_code": "fin",
      "participants": 0,
      "office_oid": "1.2.246.562.10.29461948951",
      "published_at": "2019-01-15T11:16:37.959Z",
      "session_date": "2019-05-26",
      "organizer_oid": "1.2.246.562.10.28646781493",
      "id": 10,
      "registration_start_date": "2025-12-03",
      "location": [
        {
          "lang": "fi",
          "extra_information": null,
          "name": "Amiedu",
          "other_location_info": "auditorio A2",
          "street_address": "Jokukatu 4",
          "post_office": "Tampere",
          "zip": "00100"
        },
        {
          "lang": "sv",
          "extra_information": null,
          "name": "Amiedu",
          "other_location_info": "auditorium A2",
          "street_address": "Jokukatu 4",
          "post_office": "Tampere",
          "zip": "00100"
        },
        {
          "lang": "en",
          "extra_information": null,
          "name": "Amiedu",
          "other_location_info": "auditorium A2",
          "street_address": "Jokukatu 4",
          "post_office": "Tampere",
          "zip": "00100"
        }
      ],
      "exam_fee": "100.00",
      "registration_end_date": "2039-12-14"
    },
    {
      "level_code": "KESKI",
      "max_participants": 20,
      "language_code": "fin",
      "participants": 0,
      "office_oid": "1.2.246.562.10.29461948951",
      "published_at": "2019-01-15T11:20:41.776Z",
      "session_date": "2019-04-06",
      "organizer_oid": "1.2.246.562.10.28646781493",
      "id": 11,
      "registration_start_date": "2019-02-01",
      "location": [
        {
          "lang": "fi",
          "extra_information": "uusia lisätietoja",
          "name": "Amiedu",
          "other_location_info": "auditorio A3",
          "street_address": "Jokukatu 4",
          "post_office": "Tampere",
          "zip": "00100"
        },
        {
          "lang": "sv",
          "extra_information": "ny extra info",
          "name": "Omenia",
          "other_location_info": "auditorium A3",
          "street_address": "Jokukatu 4",
          "post_office": "Tammerfors",
          "zip": "00100"
        },
        {
          "lang": "en",
          "extra_information": "new additional info",
          "name": "Omenia",
          "other_location_info": "auditorium A3",
          "street_address": "Jokukatu 4",
          "post_office": "Tampere",
          "zip": "00100"
        }
      ],
      "exam_fee": "123.00",
      "registration_end_date": "2039-02-28"
    },
    {
      "level_code": "KESKI",
      "max_participants": 25,
      "language_code": "fin",
      "participants": 24,
      "office_oid": "1.2.246.562.5.22724043777",
      "published_at": "2019-01-17T12:30:00.000Z",
      "session_date": "2019-04-06",
      "organizer_oid": "1.2.246.562.10.39706139522",
      "id": 12,
      "registration_start_date": "2019-02-01",
      "location": [
        {
          "lang": "fi",
          "extra_information": "Sali toisessa kerroksessa.",
          "name": "Maunulan yhteiskoulu - Helsingin matematiikkalukio",
          "other_location_info": "Sali Kekkonen",
          "street_address": "Mikälietie 4",
          "post_office": "Jyväskylä",
          "zip": "40100"
        },
        {
          "lang": "sv",
          "extra_information": null,
          "name": "Jyväskylän kansalaisopisto",
          "other_location_info": "Hall Kekkonen",
          "street_address": "Mikälietie 4",
          "post_office": "Jyväskylä",
          "zip": "40100"
        },
        {
          "lang": "en",
          "extra_information": null,
          "name": "Maunula Secondary School and Helsinki School of Mathematics",
          "other_location_info": "Hall Kekkonen",
          "street_address": "Mikälietie 4",
          "post_office": "Jyväskylä",
          "zip": "40100"
        }
      ],
      "exam_fee": "100.00",
      "registration_end_date": "2039-02-28"
    },
    {
      "level_code": "YLIN",
      "max_participants": 10,
      "language_code": "deu",
      "participants": 10,
      "office_oid": "1.2.246.562.5.22724043777",
      "published_at": "2019-01-17T12:30:00.000Z",
      "session_date": "2019-04-06",
      "organizer_oid": "1.2.246.562.10.39706139522",
      "id": 13,
      "registration_start_date": "2019-02-01",
      "location": [
        {
          "lang": "fi",
          "extra_information": "Sali toisessa kerroksessa.",
          "name": "Jyväskylän kansalaisopisto",
          "other_location_info": "Sali Mannerheim",
          "street_address": "Mikälietie 4",
          "post_office": "JYVÄSKYLÄ",
          "zip": "40100"
        },
        {
          "lang": "sv",
          "extra_information": null,
          "name": "Jyväskylän kansalaisopisto",
          "other_location_info": "Hall Mannerheim",
          "street_address": "Mikälietie 4",
          "post_office": "Jyväskylä",
          "zip": "40100"
        },
        {
          "lang": "en",
          "extra_information": null,
          "name": "Jyväskylän kansalaisopisto",
          "other_location_info": "Hall Mannerheim",
          "street_address": "Mikälietie 4",
          "post_office": "Jyväskylä",
          "zip": "40100"
        }
      ],
      "exam_fee": "160.00",
      "registration_end_date": "2029-02-28"
    },
    {
      "level_code": "PERUS",
      "max_participants": 20,
      "language_code": "fin",
      "participants": 20,
      "office_oid": "1.2.246.562.5.22724043777",
      "published_at": "2019-01-17T12:32:00.000Z",
      "session_date": "2019-04-06",
      "organizer_oid": "1.2.246.562.10.39706139522",
      "id": 14,
      "registration_start_date": "2019-02-01",
      "location": [
        {
          "lang": "fi",
          "extra_information": "Sali kolmannessa kerroksessa.",
          "name": "Jyväskylän kansalaisopisto",
          "other_location_info": "Sali Koivisto",
          "street_address": "Mikälietie 4",
          "post_office": "Jyväskylä",
          "zip": "40100"
        },
        {
          "lang": "sv",
          "extra_information": "Hall på tredje våningen.",
          "name": "Jyväskylän kansalaisopisto",
          "other_location_info": "Hall Koivisto",
          "street_address": "Mikälietie 4",
          "post_office": "Jyväskylä",
          "zip": "40100"
        },
        {
          "lang": "en",
          "extra_information": "Hall is on the third floor.",
          "name": "Jyväskylän kansalaisopisto",
          "other_location_info": "Hall Koivisto",
          "street_address": "Mikälietie 4",
          "post_office": "Jyväskylä",
          "zip": "40100"
        }
      ],
      "exam_fee": "100.00",
      "registration_end_date": "2039-02-28"
    }
  ]
}
